{"updated":"2026-07-22T06:12:44.628Z","source":"openstreetmap/overpass","attribution":"© OpenStreetMap contributors (ODbL)","region":"mkad_plus","layer":"urban","bbox":{"south":55.45,"west":37.15,"north":56.05,"east":38.05},"count":539,"places":[{"id":"143561186","lat":55.93415,"lon":37.51424,"place":"city","name":"Долгопрудный"},{"id":"143564891","lat":55.89173,"lon":37.4397,"place":"city","name":"Химки"},{"id":"191849717","lat":55.919,"lon":37.81504,"place":"city","name":"Королёв"},{"id":"191858851","lat":55.67831,"lon":37.89377,"place":"city","name":"Люберцы"},{"id":"191871925","lat":55.67822,"lon":37.26681,"place":"city","name":"Одинцово"},{"id":"249754394","lat":55.70155,"lon":38.01104,"place":"village","name":"Мотяково"},{"id":"250543768","lat":55.68749,"lon":37.97397,"place":"village","name":"Машково"},{"id":"250543769","lat":55.69385,"lon":37.97517,"place":"town","name":"Марусино"},{"id":"250572380","lat":55.68845,"lon":38.04684,"place":"village","name":"Торбеево"},{"id":"250572383","lat":55.70583,"lon":38.03859,"place":"village","name":"Русавкино-Романово"},{"id":"252122827","lat":55.72497,"lon":37.95407,"place":"village","name":"Павлино"},{"id":"252125635","lat":55.72119,"lon":38.03531,"place":"village","name":"Пуршево"},{"id":"253041038","lat":55.99197,"lon":37.21424,"place":"city","name":"Зеленоград"},{"id":"253362772","lat":55.72698,"lon":37.9502,"place":"village","name":"Фенино"},{"id":"253438546","lat":55.82047,"lon":37.31969,"place":"city","name":"Красногорск"},{"id":"253438581","lat":55.83948,"lon":37.1771,"place":"town","name":"Нахабино"},{"id":"253849605","lat":55.68411,"lon":37.92291,"place":"village","name":"Некрасовка"},{"id":"253849606","lat":55.72855,"lon":38.0428,"place":"village","name":"Соболиха"},{"id":"254255791","lat":56.01135,"lon":37.33119,"place":"village","name":"Поярково"},{"id":"254255806","lat":56.03681,"lon":37.35339,"place":"village","name":"Мышецкое"},{"id":"256195778","lat":56.02235,"lon":37.32957,"place":"village","name":"Владычино"},{"id":"256195779","lat":56.01132,"lon":37.34895,"place":"hamlet","name":"Лунёво"},{"id":"256195780","lat":55.99914,"lon":37.36836,"place":"village","name":"Шемякино"},{"id":"256195781","lat":55.98239,"lon":37.37359,"place":"hamlet","name":"Дубровки"},{"id":"256195782","lat":55.98881,"lon":37.40663,"place":"hamlet","name":"Чашниково"},{"id":"256195783","lat":55.99195,"lon":37.38781,"place":"village","name":"Перепечино"},{"id":"256195791","lat":56.04896,"lon":37.53506,"place":"village","name":"Шолохово"},{"id":"256195808","lat":56.04075,"lon":37.60756,"place":"village","name":"Аксаково"},{"id":"256195810","lat":55.98112,"lon":37.55756,"place":"hamlet","name":"Новоалександрово"},{"id":"256195811","lat":56.04612,"lon":37.67726,"place":"village","name":"Витенёво"},{"id":"256195868","lat":55.98753,"lon":37.66791,"place":"village","name":"Сорокино"},{"id":"256195876","lat":56.0021,"lon":37.72765,"place":"village","name":"Юдино"},{"id":"256195877","lat":56.01493,"lon":37.721,"place":"village","name":"Манюхино"},{"id":"256195880","lat":56.00161,"lon":37.71191,"place":"village","name":"Ульянково"},{"id":"256195883","lat":56.04881,"lon":37.59802,"place":"hamlet","name":"Крюково"},{"id":"256195884","lat":56.02244,"lon":37.68371,"place":"village","name":"Никульское"},{"id":"256195886","lat":56.02274,"lon":37.70635,"place":"village","name":"Пруссы"},{"id":"256195951","lat":56.04184,"lon":37.90563,"place":"village","name":"Костино"},{"id":"256361817","lat":55.50138,"lon":37.56454,"place":"town","name":"Щербинка"},{"id":"256361842","lat":55.55715,"lon":37.70871,"place":"city","name":"Видное"},{"id":"256361846","lat":55.76225,"lon":37.85656,"place":"city","name":"Реутов"},{"id":"256361884","lat":56.01043,"lon":37.84619,"place":"city","name":"Пушкино"},{"id":"256361890","lat":55.97522,"lon":37.90875,"place":"town","name":"Ивантеевка"},{"id":"258828718","lat":55.63092,"lon":37.84967,"place":"town","name":"Дзержинский"},{"id":"258834478","lat":55.58225,"lon":37.90802,"place":"town","name":"Лыткарино"},{"id":"259859784","lat":55.84852,"lon":38.03064,"place":"hamlet","name":"Алмазово"},{"id":"259860109","lat":55.85955,"lon":38.04509,"place":"hamlet","name":"Большие Жеребцы"},{"id":"260331263","lat":55.80154,"lon":37.20952,"place":"village","name":"Николо-Урюпино"},{"id":"264180569","lat":55.6117,"lon":37.30025,"place":"town","name":"Внуково"},{"id":"265998757","lat":55.64526,"lon":38.00424,"place":"town","name":"Малаховка"},{"id":"266448108","lat":55.74728,"lon":37.29758,"place":"hamlet","name":"Раздоры"},{"id":"266448573","lat":55.74155,"lon":37.27722,"place":"village","name":"Барвиха"},{"id":"266448672","lat":55.7399,"lon":37.25073,"place":"village","name":"Жуковка"},{"id":"267102723","lat":55.65872,"lon":37.97981,"place":"town","name":"Красково"},{"id":"267728721","lat":55.63375,"lon":37.97126,"place":"village","name":"Пехорка"},{"id":"270931129","lat":55.62846,"lon":37.91933,"place":"village","name":"Токарёво"},{"id":"271171982","lat":55.64392,"lon":37.93626,"place":"hamlet","name":"Часовня"},{"id":"271172527","lat":55.63769,"lon":37.95613,"place":"village","name":"Жилино-2"},{"id":"271172616","lat":55.65339,"lon":37.9464,"place":"town","name":"Томилино"},{"id":"272054361","lat":55.61456,"lon":38.04037,"place":"village","name":"Верея"},{"id":"272506939","lat":55.51041,"lon":37.58474,"place":"village","name":"Милицейский посёлок"},{"id":"276906848","lat":55.86069,"lon":37.31472,"place":"hamlet","name":"Ангелово"},{"id":"276906885","lat":55.8755,"lon":37.31306,"place":"town","name":"Отрадное"},{"id":"277504379","lat":55.45131,"lon":37.39936,"place":"village","name":"Поливаново"},{"id":"277525531","lat":55.48836,"lon":37.72467,"place":"village","name":"Павловское"},{"id":"277525670","lat":55.46426,"lon":37.67421,"place":"hamlet","name":"Макарово"},{"id":"296859747","lat":55.58422,"lon":37.1778,"place":"village","name":"Шарапово"},{"id":"297422588","lat":55.45738,"lon":37.51253,"place":"hamlet","name":"Ерино"},{"id":"299006286","lat":55.46372,"lon":37.47474,"place":"village","name":"Студенцы"},{"id":"299006431","lat":55.4657,"lon":37.4912,"place":"hamlet","name":"Армазово"},{"id":"299006563","lat":55.46715,"lon":37.49963,"place":"hamlet","name":"Рыбино"},{"id":"299196487","lat":55.45223,"lon":37.4433,"place":"hamlet","name":"Луковня"},{"id":"301337780","lat":55.636,"lon":38.04482,"place":"town","name":"Удельная"},{"id":"301484274","lat":55.55116,"lon":37.66184,"place":"hamlet","name":"Спасское"},{"id":"301484734","lat":55.5564,"lon":37.62224,"place":"hamlet","name":"Жабкино"},{"id":"304961227","lat":55.45362,"lon":37.91997,"place":"village","name":"Истомиха"},{"id":"304961239","lat":55.46298,"lon":37.93416,"place":"village","name":"Новлянское"},{"id":"304961264","lat":55.4862,"lon":37.89089,"place":"village","name":"Семивраги"},{"id":"304961302","lat":55.49138,"lon":37.85677,"place":"village","name":"Колычево"},{"id":"304961392","lat":55.47932,"lon":37.83368,"place":"village","name":"Котляково"},{"id":"304961443","lat":55.4749,"lon":37.79929,"place":"village","name":"Киселиха"},{"id":"304961487","lat":55.48665,"lon":37.74811,"place":"village","name":"Ям"},{"id":"306174317","lat":56.03686,"lon":37.2333,"place":"town","name":"Менделеево"},{"id":"308666843","lat":55.78475,"lon":37.35788,"place":"village","name":"Рублёво"},{"id":"309996435","lat":55.75333,"lon":37.20981,"place":"village","name":"Александровка"},{"id":"315970784","lat":55.67358,"lon":38.03815,"place":"hamlet","name":"Лукьяновка"},{"id":"317469327","lat":55.6835,"lon":37.98834,"place":"hamlet","name":"Балластный Карьер"},{"id":"317470882","lat":55.6086,"lon":37.97437,"place":"town","name":"Октябрьский"},{"id":"317600259","lat":55.62007,"lon":38.00227,"place":"village","name":"Михнево"},{"id":"317601921","lat":55.61819,"lon":38.01476,"place":"village","name":"Опытное Поле"},{"id":"330239843","lat":55.50457,"lon":37.94654,"place":"village","name":"посёлок Володарского"},{"id":"330239961","lat":55.48674,"lon":37.97884,"place":"village","name":"Константиново"},{"id":"330244826","lat":55.53559,"lon":38.03135,"place":"village","name":"Еганово"},{"id":"336306068","lat":55.6556,"lon":37.20483,"place":"town","name":"ВНИИССОК"},{"id":"336306074","lat":55.62836,"lon":37.19164,"place":"hamlet","name":"Солманово"},{"id":"336306091","lat":55.55039,"lon":37.97312,"place":"village","name":"Верхнее Мячково"},{"id":"338779881","lat":55.61391,"lon":37.78956,"place":"hamlet","name":"Беседы"},{"id":"338781016","lat":55.60516,"lon":37.79143,"place":"hamlet","name":"Мильково"},{"id":"343513340","lat":55.55517,"lon":37.43306,"place":"village","name":"Сосенки"},{"id":"344843870","lat":55.60161,"lon":37.81756,"place":"hamlet","name":"Слобода"},{"id":"344843944","lat":55.59562,"lon":37.80747,"place":"hamlet","name":"Мамоново"},{"id":"346399343","lat":55.88164,"lon":37.92746,"place":"village","name":"Оболдино"},{"id":"346399901","lat":55.89708,"lon":37.96321,"place":"village","name":"Серково"},{"id":"359535254","lat":55.79977,"lon":37.93737,"place":"city","name":"Балашиха"},{"id":"360000571","lat":55.55982,"lon":37.36345,"place":"hamlet","name":"Радиоцентр"},{"id":"360000587","lat":55.70193,"lon":37.3144,"place":"hamlet","name":"Никонорово"},{"id":"360000588","lat":55.505,"lon":37.77806,"place":"village","name":"Горки Ленинские"},{"id":"360000640","lat":55.55974,"lon":37.40929,"place":"village","name":"Летово"},{"id":"360000645","lat":55.59549,"lon":37.20518,"place":"village","name":"Марушкино"},{"id":"360000655","lat":55.56244,"lon":37.353,"place":"hamlet","name":"Пушкино"},{"id":"360000659","lat":55.8084,"lon":37.28668,"place":"village","name":"Новый"},{"id":"360000665","lat":55.98638,"lon":37.27925,"place":"hamlet","name":"Елино"},{"id":"360000685","lat":55.5011,"lon":37.67833,"place":"hamlet","name":"Яковлево"},{"id":"360000694","lat":55.64848,"lon":37.31871,"place":"village","name":"ДСК «Мичуринец»"},{"id":"360000701","lat":55.49116,"lon":37.51067,"place":"village","name":"Рязаново"},{"id":"360000708","lat":55.57283,"lon":37.42758,"place":"hamlet","name":"Макарово"},{"id":"360000746","lat":55.6968,"lon":37.3164,"place":"hamlet","name":"Лохино"},{"id":"360000801","lat":55.56783,"lon":38.02893,"place":"village","name":"Заозёрье"},{"id":"360000818","lat":55.56531,"lon":37.23652,"place":"hamlet","name":"Большое Покровское"},{"id":"360000831","lat":55.54363,"lon":37.60135,"place":"hamlet","name":"Леспаркхоз"},{"id":"360000845","lat":55.90471,"lon":37.21905,"place":"village","name":"Большаково"},{"id":"360000852","lat":55.53296,"lon":37.73468,"place":"hamlet","name":"Пуговичино"},{"id":"360000859","lat":55.57481,"lon":37.2819,"place":"hamlet","name":"Голенищево"},{"id":"360000861","lat":55.5596,"lon":37.34668,"place":"village","name":"Филимонки"},{"id":"360000881","lat":55.5116,"lon":37.69346,"place":"hamlet","name":"Федюково"},{"id":"360000897","lat":55.47389,"lon":37.62111,"place":"hamlet","name":"Быковка"},{"id":"360000906","lat":55.56386,"lon":37.81775,"place":"town","name":"Мисайлово"},{"id":"360000925","lat":55.8783,"lon":37.3692,"place":"hamlet","name":"Гаврилково"},{"id":"360000936","lat":55.5325,"lon":37.36429,"place":"hamlet","name":"Писково"},{"id":"360000937","lat":55.55472,"lon":37.24222,"place":"hamlet","name":"Акиньшино"},{"id":"360000941","lat":55.50304,"lon":37.3313,"place":"village","name":"Ватутинки"},{"id":"360000953","lat":55.73559,"lon":37.34437,"place":"village","name":"Ромашково"},{"id":"360000993","lat":55.94095,"lon":37.35615,"place":"village","name":"Новоподрезково"},{"id":"360001008","lat":55.96933,"lon":37.78043,"place":"town","name":"Черкизово"},{"id":"360001012","lat":55.59086,"lon":37.3214,"place":"hamlet","name":"Мешково"},{"id":"360001031","lat":55.66665,"lon":37.3007,"place":"hamlet","name":"Глазынино"},{"id":"360001043","lat":55.47567,"lon":37.4172,"place":"hamlet","name":"Новинки"},{"id":"360001045","lat":55.86664,"lon":37.18776,"place":"hamlet","name":"Желябино"},{"id":"360001051","lat":55.56254,"lon":37.66762,"place":"village","name":"Булатниково"},{"id":"360001058","lat":55.64626,"lon":37.96037,"place":"village","name":"Кирилловка"},{"id":"360001060","lat":55.4962,"lon":37.95825,"place":"hamlet","name":"Малая Володарка"},{"id":"360001064","lat":55.47738,"lon":37.39702,"place":"village","name":"Яковлево"},{"id":"360001068","lat":55.88096,"lon":37.94347,"place":"hamlet","name":"Супонево"},{"id":"360001081","lat":55.4791,"lon":37.67078,"place":"hamlet","name":"Ворыпаево"},{"id":"360001083","lat":55.569,"lon":37.61411,"place":"hamlet","name":"Битца"},{"id":"360001086","lat":55.53921,"lon":37.74193,"place":"hamlet","name":"Дыдылдино"},{"id":"360001087","lat":55.46089,"lon":37.82221,"place":"hamlet","name":"Красино"},{"id":"360001089","lat":55.63436,"lon":37.94554,"place":"village","name":"Жилино-1"},{"id":"360001093","lat":55.67336,"lon":37.31451,"place":"hamlet","name":"Вырубово"},{"id":"360001099","lat":55.56342,"lon":37.29092,"place":"hamlet","name":"Середнёво"},{"id":"360001111","lat":55.6,"lon":37.171,"place":"town","name":"Кокошкино"},{"id":"360001113","lat":55.45038,"lon":37.60422,"place":"hamlet","name":"Жданово"},{"id":"360001117","lat":55.52704,"lon":37.61735,"place":"town","name":"Боброво"},{"id":"360001118","lat":55.57435,"lon":37.26752,"place":"village","name":"Бурцево"},{"id":"360001120","lat":55.59028,"lon":37.75028,"place":"town","name":"Развилка"},{"id":"360001121","lat":56.01295,"lon":37.22434,"place":"village","name":"Ржавки"},{"id":"360001126","lat":55.9336,"lon":37.28859,"place":"village","name":"Голиково"},{"id":"360001146","lat":55.47928,"lon":37.60285,"place":"hamlet","name":"Борисовка"},{"id":"360001149","lat":55.90949,"lon":37.73394,"place":"city","name":"Мытищи"},{"id":"360001151","lat":55.4975,"lon":37.95,"place":"hamlet","name":"Большая Володарка"},{"id":"360001152","lat":55.53575,"lon":37.15597,"place":"village","name":"Первомайское"},{"id":"360001158","lat":55.71603,"lon":37.28103,"place":"hamlet","name":"Рождественно"},{"id":"360001163","lat":55.52819,"lon":37.96149,"place":"hamlet","name":"Щеголево"},{"id":"360001165","lat":55.54104,"lon":37.36613,"place":"village","name":"Пенино"},{"id":"360001179","lat":55.91006,"lon":37.22931,"place":"hamlet","name":"Благовещенка"},{"id":"360001189","lat":55.66167,"lon":37.86731,"place":"town","name":"Котельники"},{"id":"360001193","lat":55.52492,"lon":37.6964,"place":"hamlet","name":"Петрушино"},{"id":"360001197","lat":55.4597,"lon":37.37901,"place":"hamlet","name":"Власьево"},{"id":"360001216","lat":55.52652,"lon":37.58668,"place":"town","name":"Дрожжино"},{"id":"360001219","lat":55.63998,"lon":37.20745,"place":"town","name":"Лесной Городок"},{"id":"360001220","lat":55.48636,"lon":37.67798,"place":"hamlet","name":"Большое Брянцево"},{"id":"360001222","lat":55.4538,"lon":37.62579,"place":"hamlet","name":"Ивлево"},{"id":"360001225","lat":56.03198,"lon":37.16804,"place":"village","name":"Чашниково"},{"id":"360001226","lat":55.56727,"lon":37.62396,"place":"hamlet","name":"Вырубово"},{"id":"360001238","lat":55.66076,"lon":37.29575,"place":"hamlet","name":"Губкино"},{"id":"360001247","lat":55.47265,"lon":37.84659,"place":"hamlet","name":"Воеводино"},{"id":"360001253","lat":55.50609,"lon":38.0172,"place":"hamlet","name":"Жуково"},{"id":"360001259","lat":55.57255,"lon":37.75999,"place":"hamlet","name":"Апаринки"},{"id":"360001268","lat":55.4875,"lon":37.5365,"place":"hamlet","name":"Старосырово"},{"id":"360001289","lat":55.68386,"lon":37.19198,"place":"town","name":"Власиха"},{"id":"360001296","lat":55.46278,"lon":37.70083,"place":"village","name":"Домодедово"},{"id":"360001306","lat":55.9,"lon":37.30098,"place":"hamlet","name":"Коростово"},{"id":"360001313","lat":55.9013,"lon":37.2348,"place":"hamlet","name":"Фёдоровка"},{"id":"360001324","lat":55.54818,"lon":37.2809,"place":"hamlet","name":"Кончеево"},{"id":"360001327","lat":55.64967,"lon":37.20925,"place":"village","name":"Бородки"},{"id":"360001329","lat":55.56884,"lon":37.6304,"place":"village","name":"Дубровский"},{"id":"360001343","lat":55.52238,"lon":37.37698,"place":"village","name":"Десна"},{"id":"360001347","lat":55.4774,"lon":37.50457,"place":"hamlet","name":"Алхимово"},{"id":"360001350","lat":55.54028,"lon":37.9775,"place":"village","name":"Нижнее Мячково"},{"id":"360001361","lat":55.68776,"lon":37.39555,"place":"town","name":"Заречье"},{"id":"360001367","lat":55.95576,"lon":37.94769,"place":"hamlet","name":"Байбаки"},{"id":"360001373","lat":55.71208,"lon":37.27131,"place":"village","name":"Подушкино"},{"id":"360001378","lat":55.9355,"lon":37.939,"place":"village","name":"Краснознаменский"},{"id":"360001384","lat":55.50804,"lon":37.64512,"place":"hamlet","name":"Спирово"},{"id":"360001398","lat":55.51919,"lon":37.65807,"place":"village","name":"Суханово"},{"id":"360001399","lat":55.96067,"lon":37.82431,"place":"village","name":"Тарасовка"},{"id":"360001403","lat":56.01263,"lon":37.95244,"place":"hamlet","name":"Левково"},{"id":"360001412","lat":55.52938,"lon":37.71273,"place":"town","name":"Сапроново"},{"id":"360001417","lat":55.47426,"lon":37.83429,"place":"hamlet","name":"Вяльково"},{"id":"360001420","lat":55.52273,"lon":37.2202,"place":"village","name":"Птичное"},{"id":"360001421","lat":55.52782,"lon":37.64575,"place":"village","name":"Лопатино"},{"id":"360001425","lat":55.85712,"lon":37.97616,"place":"village","name":"Долгое Лёдово"},{"id":"360001432","lat":55.69813,"lon":37.20417,"place":"hamlet","name":"Лайково"},{"id":"360001436","lat":55.48321,"lon":37.46116,"place":"hamlet","name":"Андреевское"},{"id":"360001440","lat":55.5875,"lon":38.00555,"place":"town","name":"Островцы"},{"id":"360001448","lat":55.45679,"lon":37.64069,"place":"hamlet","name":"Холопово"},{"id":"360001469","lat":55.77361,"lon":37.25417,"place":"hamlet","name":"Глухово"},{"id":"360001485","lat":55.77221,"lon":37.19825,"place":"hamlet","name":"Бузланово"},{"id":"360001511","lat":55.52536,"lon":37.35561,"place":"hamlet","name":"Тупиково"},{"id":"360001515","lat":55.97527,"lon":37.30645,"place":"hamlet","name":"Чёрная Грязь"},{"id":"360001566","lat":55.4584,"lon":37.6046,"place":"hamlet","name":"Плещеево"},{"id":"360001581","lat":55.91088,"lon":37.19328,"place":"village","name":"Николо-Черкизово"},{"id":"360001607","lat":55.94476,"lon":37.95389,"place":"village","name":"Набережная"},{"id":"360001648","lat":55.45278,"lon":37.83139,"place":"hamlet","name":"Татарское"},{"id":"360001652","lat":55.72426,"lon":37.20023,"place":"hamlet","name":"Калчуга"},{"id":"360001660","lat":55.51472,"lon":37.87528,"place":"hamlet","name":"Куприяниха"},{"id":"360001665","lat":55.55373,"lon":37.31215,"place":"hamlet","name":"Староселье"},{"id":"360001691","lat":55.68818,"lon":37.32118,"place":"village","name":"Мамоново"},{"id":"360001700","lat":55.9606,"lon":37.74686,"place":"hamlet","name":"Высоково"},{"id":"360001715","lat":55.97839,"lon":37.38237,"place":"hamlet","name":"Исаково"},{"id":"360001729","lat":55.50418,"lon":37.73596,"place":"village","name":"Белеутово"},{"id":"360001732","lat":55.58528,"lon":37.84444,"place":"hamlet","name":"Остров"},{"id":"360001742","lat":55.55006,"lon":37.74612,"place":"hamlet","name":"Таболово"},{"id":"360001749","lat":55.5335,"lon":37.58582,"place":"village","name":"Новодрожжино"},{"id":"360001756","lat":55.57179,"lon":37.74421,"place":"hamlet","name":"Малое Видное"},{"id":"360001774","lat":55.59731,"lon":37.44933,"place":"hamlet","name":"Николо-Хованское"},{"id":"360001779","lat":55.63536,"lon":37.93317,"place":"village","name":"Чкалово"},{"id":"360001794","lat":55.89004,"lon":37.98513,"place":"hamlet","name":"Лёдово"},{"id":"360001798","lat":55.86468,"lon":37.31211,"place":"hamlet","name":"Марьино"},{"id":"360001806","lat":55.5528,"lon":37.19544,"place":"hamlet","name":"Марфино"},{"id":"360001808","lat":55.75861,"lon":37.23861,"place":"village","name":"Ильинское"},{"id":"360001812","lat":55.53399,"lon":37.43332,"place":"village","name":"Городище"},{"id":"360001835","lat":55.61325,"lon":37.16384,"place":"village","name":"Зайцево"},{"id":"360001837","lat":55.4645,"lon":37.35487,"place":"hamlet","name":"Пыхчево"},{"id":"360001840","lat":55.51818,"lon":37.72018,"place":"village","name":"Калиновка"},{"id":"360001862","lat":55.51596,"lon":37.95159,"place":"hamlet","name":"Прудки"},{"id":"360001876","lat":55.53694,"lon":37.71444,"place":"hamlet","name":"Ермолино"},{"id":"360001905","lat":55.61674,"lon":37.31363,"place":"hamlet","name":"Лапшинка"},{"id":"360001921","lat":55.45842,"lon":37.61126,"place":"hamlet","name":"Стрелково"},{"id":"360001926","lat":55.5125,"lon":37.90311,"place":"hamlet","name":"Григорчиково"},{"id":"360001936","lat":55.89689,"lon":37.3002,"place":"village","name":"Светлые Горы"},{"id":"360001951","lat":55.52344,"lon":37.31661,"place":"village","name":"Фоминское"},{"id":"360002006","lat":55.47738,"lon":37.63564,"place":"hamlet","name":"Бяконтово"},{"id":"360002011","lat":55.49533,"lon":37.8301,"place":"village","name":"Чурилково"},{"id":"360002024","lat":55.66626,"lon":37.33079,"place":"hamlet","name":"Переделки"},{"id":"360002026","lat":55.66602,"lon":37.32338,"place":"hamlet","name":"Измалково"},{"id":"360002029","lat":55.45981,"lon":37.64675,"place":"hamlet","name":"Агафоново"},{"id":"360002039","lat":55.5783,"lon":37.70096,"place":"hamlet","name":"Ближние Прудищи"},{"id":"360002050","lat":55.57556,"lon":37.43472,"place":"hamlet","name":"Прокшино"},{"id":"360002061","lat":55.71083,"lon":37.18722,"place":"hamlet","name":"Большое Сареево"},{"id":"360002078","lat":55.93681,"lon":37.23447,"place":"village","name":"Лигачёво"},{"id":"360002090","lat":55.49567,"lon":37.85075,"place":"hamlet","name":"Шестово"},{"id":"360002092","lat":55.8625,"lon":37.39028,"place":"town","name":"Путилково"},{"id":"360002099","lat":55.53473,"lon":37.4555,"place":"village","name":"Ямонтово"},{"id":"360002103","lat":55.95894,"lon":37.73029,"place":"hamlet","name":"Здравница"},{"id":"360002106","lat":55.50736,"lon":37.27555,"place":"village","name":"Ильичёвка"},{"id":"360002108","lat":55.79543,"lon":37.27184,"place":"hamlet","name":"Воронки"},{"id":"360002118","lat":55.47369,"lon":37.59234,"place":"hamlet","name":"Ордынцы"},{"id":"360002120","lat":55.6026,"lon":37.34792,"place":"town","name":"Московский"},{"id":"360002134","lat":55.51126,"lon":38.0401,"place":"hamlet","name":"Какузево"},{"id":"360002158","lat":55.54506,"lon":37.3283,"place":"hamlet","name":"Кнутово"},{"id":"360002170","lat":55.50621,"lon":37.75426,"place":"village","name":"Горки"},{"id":"360002180","lat":55.80086,"lon":37.31177,"place":"village","name":"Гольёво"},{"id":"360002182","lat":55.52285,"lon":37.36302,"place":"hamlet","name":"Станиславль"},{"id":"360002192","lat":55.9268,"lon":37.27409,"place":"hamlet","name":"Жаворонки"},{"id":"360002205","lat":55.79074,"lon":37.21612,"place":"village","name":"Поздняково"},{"id":"360002207","lat":55.49041,"lon":37.40178,"place":"hamlet","name":"Черепово"},{"id":"360002211","lat":55.94749,"lon":37.18921,"place":"village","name":"Рузино"},{"id":"360002219","lat":55.46537,"lon":37.64298,"place":"hamlet","name":"Услонь"},{"id":"360002221","lat":55.56083,"lon":37.185,"place":"hamlet","name":"Соколово"},{"id":"360002250","lat":55.58611,"lon":37.78694,"place":"hamlet","name":"Картино"},{"id":"360002279","lat":55.47703,"lon":37.60838,"place":"village","name":"Быково"},{"id":"360002288","lat":55.50679,"lon":37.85767,"place":"hamlet","name":"Лукино"},{"id":"360002297","lat":55.56083,"lon":37.69279,"place":"hamlet","name":"Тарычёво"},{"id":"360002322","lat":55.93272,"lon":37.19077,"place":"village","name":"Брёхово"},{"id":"360002331","lat":55.94341,"lon":37.3848,"place":"hamlet","name":"Бурцево"},{"id":"360002355","lat":55.54913,"lon":37.32372,"place":"village","name":"Марьино"},{"id":"360002370","lat":55.92117,"lon":37.91558,"place":"town","name":"Загорянский"},{"id":"360002374","lat":55.47377,"lon":37.95139,"place":"hamlet","name":"Плетениха"},{"id":"360002379","lat":55.71153,"lon":37.19269,"place":"hamlet","name":"Малое Сареево"},{"id":"360002384","lat":55.51899,"lon":37.96528,"place":"hamlet","name":"Редькино"},{"id":"367811759","lat":55.50764,"lon":37.58138,"place":"village","name":"Липки"},{"id":"375569417","lat":55.49693,"lon":37.58551,"place":"village","name":"Захарьино"},{"id":"392076137","lat":55.60078,"lon":38.04455,"place":"village","name":"Спартак"},{"id":"446046042","lat":55.67825,"lon":37.15359,"place":"hamlet","name":"Лапино"},{"id":"446046044","lat":55.67273,"lon":37.15626,"place":"hamlet","name":"Никольское"},{"id":"474418645","lat":55.72483,"lon":37.1636,"place":"village","name":"Горки-2"},{"id":"478532262","lat":55.49759,"lon":37.91216,"place":"village","name":"Большое Саврасово"},{"id":"534803361","lat":56.01045,"lon":37.46708,"place":"town","name":"Лобня"},{"id":"597433338","lat":55.45404,"lon":37.85032,"place":"hamlet","name":"Шишкино"},{"id":"620370311","lat":55.47881,"lon":37.81254,"place":"hamlet","name":"Камкино"},{"id":"623508716","lat":55.63064,"lon":37.33391,"place":"village","name":"Рассказовка"},{"id":"644997435","lat":55.5869,"lon":37.73102,"place":"town","name":"посёлок Совхоза имени Ленина"},{"id":"674054148","lat":55.68736,"lon":37.36789,"place":"village","name":"Сколково"},{"id":"699261205","lat":55.97736,"lon":37.57478,"place":"village","name":"Новоалександрово"},{"id":"762411301","lat":55.93772,"lon":37.91991,"place":"hamlet","name":"Васильевское"},{"id":"774597426","lat":55.8628,"lon":37.98515,"place":"village","name":"Медвежьи Озёра"},{"id":"774597428","lat":55.87341,"lon":37.99147,"place":"village","name":"Новый Городок"},{"id":"789346569","lat":55.60175,"lon":37.33386,"place":"hamlet","name":"посёлок Института Полиомиелита"},{"id":"791717625","lat":55.49819,"lon":37.47431,"place":"village","name":"Никульское"},{"id":"804613512","lat":55.52756,"lon":37.44512,"place":"village","name":"посёлок подсобного хозяйства «Воскресенское»"},{"id":"828709271","lat":55.93381,"lon":37.22552,"place":"hamlet","name":"Середниково"},{"id":"845716021","lat":55.49968,"lon":37.48709,"place":"hamlet","name":"Остафьево"},{"id":"845716066","lat":55.49579,"lon":37.50627,"place":"village","name":"Остафьево"},{"id":"976861600","lat":56.00733,"lon":37.79647,"place":"village","name":"Акулово"},{"id":"976862420","lat":55.81889,"lon":37.86751,"place":"town","name":"Восточный"},{"id":"1038112378","lat":55.46829,"lon":37.52362,"place":"village","name":"Девятское"},{"id":"1042228567","lat":55.59032,"lon":37.76637,"place":"hamlet","name":"Ащерино"},{"id":"1097001907","lat":55.56319,"lon":37.33859,"place":"hamlet","name":"Кузьминки"},{"id":"1126489747","lat":55.98274,"lon":37.57594,"place":"village","name":"Троицкое"},{"id":"1138201860","lat":55.65074,"lon":37.16687,"place":"village","name":"Трубачеевка"},{"id":"1138201911","lat":55.65433,"lon":37.17355,"place":"hamlet","name":"Крюково"},{"id":"1138202293","lat":55.65923,"lon":37.18657,"place":"village","name":"Юдино"},{"id":"1160875164","lat":55.66414,"lon":37.23938,"place":"hamlet","name":"Акулово"},{"id":"1229124128","lat":55.97186,"lon":37.70047,"place":"hamlet","name":"Подрезово"},{"id":"1240455212","lat":55.58635,"lon":37.15348,"place":"village","name":"Санино"},{"id":"1287561979","lat":55.67851,"lon":37.31127,"place":"hamlet","name":"Одинцовский"},{"id":"1298562673","lat":55.72699,"lon":37.2933,"place":"village","name":"Шульгино"},{"id":"1298562864","lat":55.7245,"lon":37.27418,"place":"village","name":"Барвиха"},{"id":"1298563013","lat":55.7351,"lon":37.23837,"place":"hamlet","name":"посёлок дачного хозяйства «Жуковка»"},{"id":"1298563939","lat":55.73113,"lon":37.22223,"place":"hamlet","name":"Усово-Тупик"},{"id":"1311145706","lat":55.77603,"lon":37.15314,"place":"village","name":"Истра"},{"id":"1331961570","lat":55.92677,"lon":37.5286,"place":"hamlet","name":"Новодачный посёлок"},{"id":"1364616119","lat":55.66965,"lon":37.32554,"place":"hamlet","name":"посёлок дома отдыха МПС \"Берёзка\""},{"id":"1364616121","lat":55.67304,"lon":37.3307,"place":"hamlet","name":"посёлок Москворецкого леспаркхоза"},{"id":"1364616123","lat":55.67118,"lon":37.30134,"place":"hamlet","name":"посёлок абонентного ящика 001"},{"id":"1364616138","lat":55.65733,"lon":37.24253,"place":"hamlet","name":"посёлок Дома отдыха \"Озёра\""},{"id":"1393852192","lat":55.98019,"lon":37.54451,"place":"hamlet","name":"Покровская Гора"},{"id":"1411991978","lat":55.46194,"lon":37.83212,"place":"hamlet","name":"Жеребятьево"},{"id":"1449105486","lat":55.72084,"lon":37.36663,"place":"town","name":"Немчиновка"},{"id":"1449108985","lat":55.73662,"lon":37.21018,"place":"hamlet","name":"посёлок дома отдыха «Огарёво»"},{"id":"1449346333","lat":55.47345,"lon":37.5402,"place":"village","name":"Знамя Октября"},{"id":"1449348564","lat":55.69741,"lon":37.33101,"place":"hamlet","name":"Трёхгорка"},{"id":"1449351625","lat":55.65412,"lon":37.291,"place":"hamlet","name":"1-й Рабочий Посёлок"},{"id":"1449449121","lat":55.7673,"lon":37.22047,"place":"village","name":"Ильинское-Усово"},{"id":"1449450081","lat":55.78957,"lon":37.24726,"place":"hamlet","name":"Михалково"},{"id":"1449472236","lat":55.55294,"lon":37.86,"place":"hamlet","name":"Дальние Прудищи"},{"id":"1449477571","lat":55.55479,"lon":37.87985,"place":"hamlet","name":"Орлово"},{"id":"1449480727","lat":55.56244,"lon":37.86389,"place":"town","name":"Молоково"},{"id":"1449486644","lat":55.53915,"lon":37.8771,"place":"hamlet","name":"Богданиха"},{"id":"1449511238","lat":56.0095,"lon":37.65167,"place":"village","name":"Жостово"},{"id":"1451626077","lat":55.90658,"lon":37.67264,"place":"village","name":"Челобитьево"},{"id":"1451694728","lat":55.6217,"lon":37.47273,"place":"town","name":"Мосрентген"},{"id":"1451708562","lat":55.48256,"lon":37.78239,"place":"hamlet","name":"Новленское"},{"id":"1451725092","lat":55.67856,"lon":37.36091,"place":"village","name":"Немчиново"},{"id":"1451727851","lat":55.70501,"lon":37.36616,"place":"town","name":"Новоивановское"},{"id":"1451731097","lat":55.55224,"lon":37.30686,"place":"hamlet","name":"Харьино"},{"id":"1451733332","lat":55.57395,"lon":37.34279,"place":"hamlet","name":"Нижнее Валуево"},{"id":"1451736738","lat":55.57258,"lon":37.35278,"place":"village","name":"Валуево"},{"id":"1451736754","lat":55.5789,"lon":37.35563,"place":"village","name":"Верхнее Валуево"},{"id":"1451738277","lat":55.99489,"lon":37.62537,"place":"village","name":"Осташково"},{"id":"1451742559","lat":56.00326,"lon":37.58609,"place":"village","name":"Новосельцево"},{"id":"1451742562","lat":55.99817,"lon":37.56589,"place":"hamlet","name":"Семкино"},{"id":"1451744211","lat":56.00799,"lon":37.54443,"place":"village","name":"Ерёмино"},{"id":"1451749181","lat":56.00372,"lon":37.52439,"place":"village","name":"Аббакумово"},{"id":"1451804859","lat":55.60304,"lon":37.4776,"place":"hamlet","name":"Мамыри"},{"id":"1451833468","lat":55.62089,"lon":37.29936,"place":"hamlet","name":"Пыхтино"},{"id":"1451898819","lat":55.56331,"lon":37.64313,"place":"village","name":"Измайлово"},{"id":"1451900111","lat":55.59963,"lon":37.79269,"place":"hamlet","name":"Дроздово"},{"id":"1452152202","lat":55.78031,"lon":37.31901,"place":"village","name":"Захарково"},{"id":"1452157302","lat":55.50266,"lon":37.28453,"place":"hamlet","name":"Ботаково"},{"id":"1452159116","lat":55.71491,"lon":37.38153,"place":"village","name":"Сетунь Малая"},{"id":"1452163475","lat":56.00391,"lon":37.93573,"place":"hamlet","name":"Невзорово"},{"id":"1452164843","lat":55.99894,"lon":37.54319,"place":"hamlet","name":"посёлок Птицефабрики"},{"id":"1452167867","lat":55.94598,"lon":37.53852,"place":"hamlet","name":"Виноградово"},{"id":"1452174557","lat":55.97819,"lon":37.72827,"place":"village","name":"Пирогово"},{"id":"1452178612","lat":55.97365,"lon":37.74598,"place":"hamlet","name":"Коргашино"},{"id":"1452181723","lat":55.96814,"lon":37.678,"place":"hamlet","name":"Болтино"},{"id":"1452187064","lat":55.962,"lon":37.65145,"place":"hamlet","name":"Погорелки"},{"id":"1452187066","lat":55.97452,"lon":37.65717,"place":"hamlet","name":"Терпигорьево"},{"id":"1452190136","lat":55.94875,"lon":37.64636,"place":"village","name":"Беляниново"},{"id":"1452192921","lat":55.93462,"lon":37.65141,"place":"hamlet","name":"Ховрино"},{"id":"1452200317","lat":55.91933,"lon":37.67669,"place":"hamlet","name":"Сгонники"},{"id":"1452202255","lat":55.92501,"lon":37.66086,"place":"village","name":"Бородино"},{"id":"1452216216","lat":55.62032,"lon":37.27345,"place":"hamlet","name":"Ликова"},{"id":"1452217447","lat":55.62282,"lon":37.26266,"place":"hamlet","name":"Изварино"},{"id":"1452230586","lat":55.97693,"lon":37.60842,"place":"village","name":"Поведники"},{"id":"1452235831","lat":55.99133,"lon":37.32458,"place":"village","name":"Пикино"},{"id":"1452242361","lat":55.48658,"lon":37.50146,"place":"village","name":"посёлок Фабрики имени 1-го Мая"},{"id":"1452244263","lat":55.63541,"lon":37.25639,"place":"village","name":"посёлок Минвнешторга"},{"id":"1452245772","lat":55.52915,"lon":37.18348,"place":"hamlet","name":"Пятовское"},{"id":"1452247775","lat":55.51334,"lon":37.25639,"place":"hamlet","name":"Губцево"},{"id":"1452249204","lat":55.52623,"lon":37.2032,"place":"hamlet","name":"Горчаково"},{"id":"1452250186","lat":55.52188,"lon":37.19746,"place":"hamlet","name":"Уварово"},{"id":"1452251901","lat":55.63838,"lon":37.27856,"place":"village","name":"Абабурово"},{"id":"1452255993","lat":55.99516,"lon":37.95763,"place":"village","name":"Комягино"},{"id":"1452318102","lat":55.48244,"lon":37.26565,"place":"village","name":"Пучково"},{"id":"1476065616","lat":55.64264,"lon":37.94681,"place":"village","name":"Егорово"},{"id":"1476084737","lat":55.62248,"lon":37.94697,"place":"town","name":"Мирный"},{"id":"1476123460","lat":55.667,"lon":37.95065,"place":"village","name":"Хлыстово"},{"id":"1476543393","lat":55.53627,"lon":37.19473,"place":"village","name":"Рогозинино"},{"id":"1480338405","lat":55.95025,"lon":37.80887,"place":"village","name":"Челюскинский"},{"id":"1480352108","lat":55.95913,"lon":37.86487,"place":"village","name":"Лесные Поляны"},{"id":"1480381593","lat":56.0435,"lon":37.99046,"place":"hamlet","name":"Доровское"},{"id":"1480381594","lat":56.04522,"lon":37.97998,"place":"village","name":"посёлок Зверосовхоза"},{"id":"1480382931","lat":56.03943,"lon":37.96863,"place":"hamlet","name":"Зелёный"},{"id":"1480393069","lat":56.02127,"lon":37.93525,"place":"hamlet","name":"Паршино"},{"id":"1480393894","lat":56.0349,"lon":37.95407,"place":"hamlet","name":"Коптелино"},{"id":"1481350135","lat":56.03968,"lon":37.91472,"place":"village","name":"Зелёный Городок"},{"id":"1520000939","lat":55.96439,"lon":37.71799,"place":"hamlet","name":"Зимино"},{"id":"1560297070","lat":55.8528,"lon":37.38673,"place":"village","name":"Новобратцевский"},{"id":"1567598658","lat":55.99926,"lon":37.41767,"place":"hamlet","name":"Носово"},{"id":"1592353074","lat":55.96521,"lon":37.73771,"place":"hamlet","name":"Свиноедово"},{"id":"1607302293","lat":55.7882,"lon":37.20475,"place":"village","name":"Инженерный-1"},{"id":"1674338558","lat":55.53353,"lon":37.8211,"place":"hamlet","name":"Коробово"},{"id":"1680837265","lat":55.6519,"lon":37.4312,"place":"village","name":"Говорово"},{"id":"1680837266","lat":55.62064,"lon":37.42885,"place":"village","name":"Саларьево"},{"id":"1681194557","lat":55.57381,"lon":37.51398,"place":"village","name":"Бачурино"},{"id":"1682344240","lat":55.52523,"lon":37.4804,"place":"village","name":"Каракашево"},{"id":"1682344249","lat":55.51086,"lon":37.42916,"place":"village","name":"Лаптево"},{"id":"1682344255","lat":55.47661,"lon":37.49147,"place":"hamlet","name":"Тарасово"},{"id":"1682344262","lat":55.52492,"lon":37.50375,"place":"village","name":"Язово"},{"id":"1684082165","lat":55.92065,"lon":37.99156,"place":"city","name":"Щёлково"},{"id":"1686293227","lat":55.75054,"lon":37.61748,"place":"city","name":"Москва"},{"id":"1691631531","lat":55.58242,"lon":37.47674,"place":"village","name":"Газопровод"},{"id":"1692437756","lat":55.53116,"lon":37.4659,"place":"village","name":"Губкино"},{"id":"1692437763","lat":55.48548,"lon":37.47104,"place":"village","name":"Мостовское"},{"id":"1692437769","lat":55.50422,"lon":37.44439,"place":"village","name":"Расторопово"},{"id":"1692441713","lat":55.47282,"lon":37.30175,"place":"town","name":"Троицк"},{"id":"1696840482","lat":55.58501,"lon":37.19639,"place":"village","name":"Давыдково"},{"id":"1696840483","lat":55.61527,"lon":37.39151,"place":"village","name":"Картмазово"},{"id":"1706802793","lat":55.94446,"lon":37.93559,"place":"village","name":"Образцово"},{"id":"1719608221","lat":55.50935,"lon":37.16504,"place":"hamlet","name":"Елизарово"},{"id":"1723122543","lat":55.58965,"lon":37.22997,"place":"hamlet","name":"Посёлок кирпичного завода"},{"id":"1770240154","lat":55.49373,"lon":37.43125,"place":"hamlet","name":"Евсеево"},{"id":"1770240155","lat":55.49037,"lon":37.43705,"place":"village","name":"Кувекино"},{"id":"1807472286","lat":55.60521,"lon":37.23302,"place":"village","name":"Постниково"},{"id":"1818590754","lat":55.87944,"lon":37.26554,"place":"town","name":"Сабурово"},{"id":"1861277443","lat":55.93104,"lon":37.26431,"place":"village","name":"Подолино"},{"id":"1862310556","lat":55.89235,"lon":37.17897,"place":"village","name":"Козино"},{"id":"1867325097","lat":55.61838,"lon":37.34291,"place":"hamlet","name":"посёлок Ульяновского лесопарка"},{"id":"1872991937","lat":55.56981,"lon":37.15173,"place":"hamlet","name":"Анкудиново"},{"id":"1872991976","lat":55.52292,"lon":37.26241,"place":"hamlet","name":"Клоково"},{"id":"1872991986","lat":56.03302,"lon":37.28189,"place":"hamlet","name":"Клушино"},{"id":"1873149717","lat":55.50847,"lon":37.28513,"place":"village","name":"Жуковка"},{"id":"1873149736","lat":55.51255,"lon":37.27927,"place":"hamlet","name":"Конюшково"},{"id":"1873149800","lat":55.52062,"lon":37.25141,"place":"hamlet","name":"Хатминки"},{"id":"1938115976","lat":56.00102,"lon":37.49528,"place":"hamlet","name":"Сумароково"},{"id":"1938129847","lat":55.9624,"lon":37.59312,"place":"village","name":"Афанасово"},{"id":"1938129848","lat":55.92854,"lon":37.61586,"place":"hamlet","name":"Вёшки"},{"id":"1938129851","lat":55.9932,"lon":37.60932,"place":"village","name":"Чиверёво"},{"id":"1938129854","lat":55.96842,"lon":37.75746,"place":"hamlet","name":"Кардо-Лента"},{"id":"1966723067","lat":55.55521,"lon":37.9256,"place":"hamlet","name":"Андреевское"},{"id":"2101339072","lat":55.80967,"lon":37.30579,"place":"hamlet","name":"Ивановское"},{"id":"2132904498","lat":55.89435,"lon":37.15161,"place":"hamlet","name":"Нефедьево"},{"id":"2148922586","lat":56.03429,"lon":37.20475,"place":"village","name":"Красный Воин"},{"id":"2153597230","lat":55.6636,"lon":37.21073,"place":"village","name":"Дубки"},{"id":"2201223300","lat":55.55,"lon":37.95306,"place":"village","name":"Титово"},{"id":"2260269092","lat":55.7869,"lon":37.29904,"place":"village","name":"Архангельское"},{"id":"2262031820","lat":55.78378,"lon":37.3024,"place":"village","name":"посёлок дачного хозяйства «Архангельское»"},{"id":"2378434048","lat":56.02541,"lon":38.04615,"place":"hamlet","name":"Корякино"},{"id":"2472896671","lat":55.8949,"lon":37.27319,"place":"hamlet","name":"Аристово"},{"id":"2505926635","lat":55.56856,"lon":38.01123,"place":"village","name":"Сельцо"},{"id":"2516132250","lat":55.54399,"lon":38.01319,"place":"village","name":"Каменное Тяжино"},{"id":"2525239531","lat":55.50753,"lon":37.22361,"place":"hamlet","name":"Поповка"},{"id":"2528236112","lat":55.9264,"lon":37.24092,"place":"hamlet","name":"посёлок санатория \"Мцыри\""},{"id":"2591319189","lat":55.62326,"lon":38.02511,"place":"hamlet","name":"посёлок Всесоюзного электротехнического института имени Ленина"},{"id":"2638313754","lat":55.56588,"lon":37.68429,"place":"hamlet","name":"Ленинский"},{"id":"2640699986","lat":55.63395,"lon":37.22754,"place":"village","name":"Осоргино"},{"id":"2641934444","lat":55.73736,"lon":37.15265,"place":"hamlet","name":"Знаменское"},{"id":"2651710743","lat":55.49802,"lon":37.82403,"place":"village","name":"Мещерино"},{"id":"2685626948","lat":55.70334,"lon":37.3831,"place":"village","name":"Марфино"},{"id":"2716943778","lat":55.99491,"lon":37.34409,"place":"village","name":"Лунёво"},{"id":"2716945210","lat":55.97909,"lon":37.27943,"place":"hamlet","name":"Подсобное хозяйство санатория имени Артёма"},{"id":"2716962247","lat":55.56347,"lon":38.04098,"place":"village","name":"посёлок имени Тельмана"},{"id":"2717024819","lat":55.75141,"lon":37.16254,"place":"village","name":"Мечниково"},{"id":"2824022495","lat":55.57032,"lon":37.47576,"place":"town","name":"Коммунарка"},{"id":"2918878698","lat":55.67705,"lon":37.23874,"place":"hamlet","name":"Красный Октябрь"},{"id":"2953874119","lat":56.00291,"lon":37.24333,"place":"hamlet","name":"Ржавки-2"},{"id":"2953917626","lat":55.94906,"lon":37.23106,"place":"hamlet","name":"Лугинино"},{"id":"2953917629","lat":55.91338,"lon":37.21632,"place":"hamlet","name":"посёлок санатория \"Энергия\""},{"id":"2953917631","lat":55.90257,"lon":37.27915,"place":"hamlet","name":"5-е Горки"},{"id":"2954029446","lat":55.60412,"lon":37.19056,"place":"village","name":"Толстопальцево"},{"id":"2954029447","lat":55.60992,"lon":37.21126,"place":"village","name":"Толстопальцево"},{"id":"2954034144","lat":55.61677,"lon":37.29218,"place":"hamlet","name":"Шельбутово"},{"id":"2954038966","lat":55.80801,"lon":37.37579,"place":"village","name":"Мякинино"},{"id":"2954408323","lat":55.69729,"lon":37.35647,"place":"village","name":"Инновационный центр «Сколково»"},{"id":"3065419900","lat":55.73137,"lon":37.20729,"place":"village","name":"Усово"},{"id":"3067187151","lat":55.63321,"lon":37.42497,"place":"village","name":"Румянцево"},{"id":"3070997321","lat":55.45835,"lon":37.2224,"place":"hamlet","name":"Поляны"},{"id":"3131120274","lat":55.51198,"lon":37.66991,"place":"village","name":"Потапово"},{"id":"3131120275","lat":55.50748,"lon":37.67023,"place":"village","name":"Боборыкино"},{"id":"3162469379","lat":55.9549,"lon":37.53665,"place":"village","name":"Грибки"},{"id":"3239828660","lat":56.00246,"lon":37.35948,"place":"village","name":"Жигалово"},{"id":"3239828861","lat":55.9713,"lon":37.36546,"place":"hamlet","name":"Паршино"},{"id":"3279193115","lat":55.509,"lon":37.84756,"place":"hamlet","name":"посёлок санатория «Горки Ленинские»"},{"id":"3385903757","lat":55.50664,"lon":37.24162,"place":"hamlet","name":"Ширяево"},{"id":"3601882625","lat":55.55345,"lon":37.64554,"place":"hamlet","name":"Спасские Выселки"},{"id":"3601888595","lat":55.46338,"lon":37.63448,"place":"hamlet","name":"Стрелковской фабрики"},{"id":"3601888596","lat":55.90265,"lon":37.26478,"place":"village","name":"Юрлово"},{"id":"3602785651","lat":56.00897,"lon":37.96853,"place":"hamlet","name":"Грибово"},{"id":"3918987114","lat":55.62923,"lon":37.4504,"place":"hamlet","name":"Дудкино"},{"id":"3944394556","lat":55.56196,"lon":37.47025,"place":"hamlet","name":"Столбово"},{"id":"3944409129","lat":55.49468,"lon":37.53036,"place":"village","name":"Молодцы"},{"id":"3948579074","lat":55.95379,"lon":37.19268,"place":"hamlet","name":"Пионерлагерь фабрики «Дукат»"},{"id":"3966454569","lat":55.64567,"lon":37.26515,"place":"hamlet","name":"Внуково"},{"id":"3966460409","lat":55.64778,"lon":37.2696,"place":"hamlet","name":"Посёлок станции Внуково"},{"id":"3966478649","lat":55.6359,"lon":37.2639,"place":"village","name":"Внуково"},{"id":"4249960120","lat":55.94532,"lon":37.74974,"place":"hamlet","name":"Посёлок Пироговского лесопарка"},{"id":"4257637819","lat":55.5066,"lon":37.68424,"place":"hamlet","name":"Малое Брянцево"},{"id":"4311557123","lat":55.70396,"lon":37.17269,"place":"hamlet","name":"Лызлово"},{"id":"4415523645","lat":55.92597,"lon":37.60827,"place":"village","name":"Вёшки"},{"id":"4415525659","lat":55.96517,"lon":37.57638,"place":"hamlet","name":"Посёлок леспаркхоза Клязьминский"},{"id":"4415531451","lat":55.95992,"lon":37.53993,"place":"hamlet","name":"Новогрязново"},{"id":"4599848122","lat":55.9906,"lon":37.52684,"place":"village","name":"Красная Горка"},{"id":"4599848893","lat":55.99949,"lon":37.64494,"place":"village","name":"Жостово"},{"id":"4599887016","lat":55.98914,"lon":37.67473,"place":"village","name":"Туристический Пансионат \"Клязьминское водохранилище\""},{"id":"4599919946","lat":55.97063,"lon":37.72297,"place":"hamlet","name":"посёлок Мебельной Фабрики"},{"id":"4599919947","lat":55.98221,"lon":37.7396,"place":"village","name":"Пирогово"},{"id":"4599985592","lat":55.96264,"lon":37.72828,"place":"hamlet","name":"Свиноедово"},{"id":"4600187886","lat":55.94772,"lon":37.53241,"place":"hamlet","name":"Горки"},{"id":"4600191641","lat":55.98381,"lon":37.52967,"place":"village","name":"Капустино"},{"id":"4600193790","lat":56.0281,"lon":37.63529,"place":"village","name":"Степаньково"},{"id":"4614320038","lat":55.57345,"lon":37.38562,"place":"village","name":"Зимёнки"},{"id":"4834544065","lat":55.45856,"lon":37.34347,"place":"hamlet","name":"Киселёвка"},{"id":"4917216911","lat":55.90372,"lon":37.62895,"place":"hamlet","name":"Нагорное"},{"id":"5075856657","lat":55.5459,"lon":37.5904,"place":"town","name":"Бутово"},{"id":"5302092393","lat":55.49598,"lon":37.92985,"place":"hamlet","name":"Малое Саврасово"},{"id":"5305101412","lat":55.49287,"lon":37.77509,"place":"hamlet","name":"Новосъяново"},{"id":"5676471339","lat":55.53358,"lon":37.41325,"place":"hamlet","name":"Милорадово"},{"id":"5875284231","lat":55.86125,"lon":37.36651,"place":"village","name":"Рождествено"},{"id":"6468213262","lat":55.52644,"lon":37.37275,"place":"hamlet","name":"микрорайон Агропункт"},{"id":"7438958803","lat":55.55793,"lon":37.211,"place":"hamlet","name":"Кривошеино"},{"id":"7488676406","lat":55.99612,"lon":38.04225,"place":"hamlet","name":"Сабурово"},{"id":"8325321749","lat":55.49288,"lon":37.18343,"place":"hamlet","name":"Кукшево"},{"id":"8669788467","lat":55.58348,"lon":37.36631,"place":"hamlet","name":"Передельцы"},{"id":"8815145172","lat":55.54178,"lon":37.78366,"place":"hamlet","name":"Петровское"},{"id":"8819716755","lat":55.49271,"lon":37.48911,"place":"village","name":"микрорайон Петровская Слобода"},{"id":"8820742819","lat":55.52796,"lon":37.15137,"place":"village","name":"Бараново"},{"id":"8870068616","lat":55.51866,"lon":37.21106,"place":"hamlet","name":"Рожново"},{"id":"8870163973","lat":55.56027,"lon":37.41532,"place":"hamlet","name":"Ларёво"},{"id":"8870235647","lat":55.60749,"lon":37.32444,"place":"hamlet","name":"Акатово"},{"id":"8973965019","lat":55.50378,"lon":37.23722,"place":"hamlet","name":"Ширяевские усадьбы"},{"id":"9003652536","lat":55.46412,"lon":37.37011,"place":"hamlet","name":"КП «Грин Парк-2»"},{"id":"10756207165","lat":55.74776,"lon":37.16998,"place":"village","name":"Петрово-Дальнее"},{"id":"12288764108","lat":55.89662,"lon":37.28353,"place":"hamlet","name":"Аристово"},{"id":"12834542965","lat":55.89626,"lon":37.78008,"place":"hamlet","name":"поселок Мытищинского водоканала"},{"id":"12923271341","lat":55.52543,"lon":37.99857,"place":"hamlet","name":"Зелёная Слобода"},{"id":"13805548642","lat":55.48693,"lon":37.78943,"place":"hamlet","name":"Старосъяново"}]}
